"id","name","lat","lon","type","description","image","wikipedia","website"
"01e2f6de-0637-4021-896a-f4257f8b0608","Memorial do Poder Judiciário","-30.032191","-51.2298532","museum","O Memorial do Judiciário do Rio Grande do Sul está localizado no térreo do Palácio da Justiça, na Praça Marechal Deodoro, no Centro Histórico de Porto Alegre. Criado em 1998, tem como missão preservar a memória do Poder Judiciário gaúcho. Reúne arquivo histórico, biblioteca, museu com acervo objetal e realiza exposições temáticas de longa e média duração. Promove visitas guiadas ao acervo e ao imponente Palácio da Justiça, ícone da arquitetura modernista. Atendimento gratuito de segunda a sexta, das 12h às 19h.","https://upload.wikimedia.org/wikipedia/commons/thumb/4/4e/Pal%C3%A1cio_da_Justi%C3%A7a_Porto_Alegre.jpg/640px-Pal%C3%A1cio_da_Justi%C3%A7a_Porto_Alegre.jpg",NULL,"https://www.tjrs.jus.br/novo/institucional/o-tjrs/historia/memorial-do-judiciario/"
"f1916491-26fe-4cac-9b9f-e2a927745df3","Museu de Paleontologia Irajá Damiani Pinto","-30.0735274","-51.1208412","museum","Fundado em 1945 pelo professor Irajá Damiani Pinto, o museu está vinculado ao Instituto de Geociências da UFRGS, no Campus do Vale. Possui um dos mais importantes acervos paleontológicos da América Latina, com mais de 60 mil peças, incluindo fósseis de vertebrados, invertebrados, plantas e microrganismos de todos os períodos geológicos. O foco principal são os vertebrados triássicos do Rio Grande do Sul, de 250 a 200 milhões de anos atrás. Recebe visitas de escolas, pesquisadores e apreciadores da história da vida na Terra.","https://upload.wikimedia.org/wikipedia/commons/thumb/2/2e/Museu_de_Paleontologia_Iraj%C3%A1_Damiani_Pinto_-_UFRGS.jpg/640px-Museu_de_Paleontologia_Iraj%C3%A1_Damiani_Pinto_-_UFRGS.jpg","pt:Museu de Paleontologia Irajá Damiani Pinto","https://www.ufrgs.br/museupaleonto/"
"01802543-7148-4e68-b8a0-207b1f6cc655","Pedra do Pé de Deus","-30.117409","-51.2418065","attraction","A Pedra do Pé de Deus é uma formação rochosa granítica localizada no Morro do Osso, na zona sul de Porto Alegre. Trata-se de um bloco de pedra com extremidades arredondadas, assentado sobre outras rochas e formando uma pequena caverna em sua parte inferior. O nome vem de uma lenda indígena que atribui à pedra propriedades curativas, ligadas à passagem de uma divindade pelo local. A pedra é um marco cultural e espiritual, especialmente entre os indígenas Kaingang, que reconhecem o Morro do Osso como território ancestral.",NULL,NULL,NULL
"3ef32297-eb46-4fbe-bdec-dcc12dde38d2","Monumento a Elis Regina","-30.0346517","-51.241332","artwork","Estátua em bronze em tamanho natural da cantora porto-alegrense Elis Regina (1945–1982), uma das maiores vozes da Música Popular Brasileira. A obra foi criada pelo artista plástico José Pereira Passos e doada à cidade pela Companhia Zaffari. Inaugurada em 26 de março de 2009, no aniversário de 237 anos de Porto Alegre, está localizada na Orla Moacyr Scliar, ao lado da Usina do Gasômetro, de frente para o Guaíba. A base de granito verde e preto remete a um disco de vinil (LP), com estrelas de metal em vários tamanhos.","https://upload.wikimedia.org/wikipedia/commons/thumb/3/31/Elis_Regina_statue_Porto_Alegre.jpg/480px-Elis_Regina_statue_Porto_Alegre.jpg",NULL,NULL
"e5db61ea-5c39-4ef6-8a47-55e7dcc4449c","Estrela Guia II","-30.0718528","-51.240134","artwork","Escultura pública localizada na zona sul de Porto Alegre, próxima ao bairro Cristal. A obra faz parte do conjunto de intervenções artísticas urbanas que ornamentam os espaços públicos da cidade, integrando arte e paisagem à beira do Guaíba.",NULL,NULL,NULL
"42c88a6d-9acd-4ef4-a42b-46707462224a","Monumento a Mário Quintana e Carlos Drummond de Andrade","-30.0302041","-51.2308718","artwork","Conjunto escultórico em bronze inaugurado em 26 de outubro de 2001 na Praça da Alfândega, no Centro Histórico de Porto Alegre. Oficialmente intitulado ""Monumento à Literatura Brasileira"", retrata um encontro imaginário entre os poetas Mário Quintana (sentado ao banco) e Carlos Drummond de Andrade (em pé, com um livro). A obra foi esculpida por Xico Stockinger em coautoria com Eloisa Tregnago, encomendada pela Câmara Riograndense do Livro para a 47ª Feira do Livro de Porto Alegre. Drummond segurava um livro de bronze, furtado em 2015 e restituído em 2022.","https://upload.wikimedia.org/wikipedia/commons/thumb/f/f3/Monumento_%C3%A0_Literatura_Brasileira_-_Porto_Alegre.jpg/480px-Monumento_%C3%A0_Literatura_Brasileira_-_Porto_Alegre.jpg","pt:Monumento à Literatura Brasileira",NULL
"3474594d-d76d-4acb-884b-69ed4c0f24b5","O Túnel do Túnel","-30.0316665","-51.2194685","artwork","Obra de arte urbana localizada no Centro Histórico de Porto Alegre. A instalação explora de forma lúdica e conceitual a ideia de profundidade e perspectiva, integrando-se à arquitetura e ao cotidiano da cidade. É uma das intervenções artísticas permanentes que compõem o patrimônio cultural público de Porto Alegre.",NULL,NULL,NULL
"66249894-b9be-4535-815a-e772b6b0e5a7","A Fuga","-30.0292514","-51.2313563","artwork","Escultura pública integrante do Museu de Percurso do Negro em Porto Alegre, projeto cultural que percorre diferentes pontos da cidade com obras de arte que narram a história e a resistência da comunidade afro-brasileira na capital gaúcha.",NULL,NULL,NULL
"e842d3df-2a65-4e21-9cb7-84e3516c3003","Pegada Africana","-30.0301616","-51.2307524","artwork","Obra de arte pública integrante do Museu de Percurso do Negro em Porto Alegre, iniciativa que espalha esculturas e instalações pela cidade para contar a história e a presença africana e afro-brasileira em Porto Alegre. A peça evoca a chegada e a marca deixada pela cultura africana na formação da sociedade gaúcha.",NULL,NULL,"http://museudepercursodonegroemportoalegre.blogspot.com.br/"
"1dd1f5a0-29f8-4d35-a222-bf9708651c1a","Teorema","-30.0293408","-51.2319792","artwork","Escultura pública localizada na Praça da Alfândega, no Centro Histórico de Porto Alegre. Integra o conjunto de obras de arte permanentes que ornamentam os espaços públicos centrais da cidade.",NULL,NULL,NULL
"62d1f7f9-8742-484c-9e3a-ea4f1fdd3cdb","A Samaritana","-30.0296353","-51.2304624","artwork","Escultura pública localizada no Centro Histórico de Porto Alegre. A obra faz referência à figura bíblica da Samaritana, mulher que ofereceu água a Jesus junto a um poço. A peça integra o patrimônio artístico permanente da cidade.",NULL,NULL,NULL
"fe215741-a3b4-4b30-a91b-fb2cc94e1137","MERGS","-30.030082","-51.2294122","museum","O Museu da Eletricidade do Rio Grande do Sul (MERGS) está localizado no Centro Histórico de Porto Alegre. Dedicado à história da energia elétrica no estado, o museu preserva equipamentos, documentos e memórias da evolução do sistema elétrico gaúcho, promovendo educação patrimonial e técnica sobre o setor energético.",NULL,"pt:Museu da Eletricidade do Rio Grande do Sul",NULL
"9f44862a-b3d0-4fe3-bbba-cf50a1f86a38","Cono Sul","-30.0544285","-51.2307807","artwork","Escultura pública em forma de cone localizada próxima ao Largo dos Açorianos, em Porto Alegre. A obra integra o conjunto de monumentos que ornamentam os espaços públicos do Centro Histórico, compondo o cenário artístico e cultural da cidade.",NULL,NULL,NULL
"e572b965-abee-4a55-93ed-7e202203befb","Torre de Ferro","-30.0480886","-51.2325621","artwork","Escultura vertical em ferro localizada no Centro Histórico de Porto Alegre. A peça integra o conjunto de obras de arte pública que marcam os espaços urbanos da capital gaúcha, estabelecendo diálogo entre arte, arquitetura e paisagem.",NULL,NULL,NULL
"13cc3dc6-e329-4911-8570-5a3982173993","Pórtico","-30.0481665","-51.231471","artwork","Escultura em forma de pórtico localizada no Centro Histórico de Porto Alegre. Obras com essa tipologia são comuns no patrimônio artístico público da cidade, funcionando como marcos visuais que delimitam e qualificam espaços urbanos.",NULL,NULL,NULL
"14137780-d291-4f6d-a714-e20a9e3dc6e6","Sem Título","-30.0482458","-51.2296503","artwork","Escultura pública sem título oficial localizada no Centro Histórico de Porto Alegre, próxima ao Largo dos Açorianos. Integra o conjunto de obras de arte permanentes distribuídas pelos espaços públicos da capital gaúcha.",NULL,NULL,NULL
"45162d0f-d290-41a9-b753-277c0e55dcbb","Canhão","-30.0565144","-51.2311506","artwork","Canhão histórico exposto como peça de patrimônio público no Centro Histórico de Porto Alegre, próximo ao Largo dos Açorianos. Peças de artilharia antigas são frequentemente preservadas como monumentos históricos, evocando o passado militar e colonial da cidade.",NULL,NULL,NULL
"1412d757-0caf-460e-8885-3f6e891f6c16","Sem Título","-30.0527095","-51.2320786","artwork","Escultura pública sem título oficial localizada no entorno do Largo dos Açorianos, no Centro Histórico de Porto Alegre. Integra o conjunto de obras de arte permanentes que enriquecem os espaços públicos da cidade.",NULL,NULL,NULL
"772c4ec9-6ee1-49b5-a1c5-99acb780287c","El Canto de las Flores","-30.0533763","-51.2309029","artwork","Escultura pública intitulada ""El Canto de las Flores"" (O Canto das Flores), localizada próxima ao Largo dos Açorianos em Porto Alegre. A obra celebra a natureza e a beleza floral, integrando o patrimônio artístico permanente dos espaços públicos da capital gaúcha.",NULL,NULL,NULL
"1a921efc-d9b3-4658-9c18-487709981142","Flor","-30.0540508","-51.2303814","artwork","Escultura representando uma flor, localizada próxima ao Largo dos Açorianos no Centro Histórico de Porto Alegre. Obras com temática floral são recorrentes no patrimônio artístico público da cidade, simbolizando vida e renovação urbana.",NULL,NULL,NULL
"54390703-694b-4192-8af0-0eddc4171af0","Mastro","-30.0563759","-51.2310458","artwork","Mastro decorativo ou escultura vertical localizada próxima ao Largo dos Açorianos, no Centro Histórico de Porto Alegre. Integra o conjunto de obras de arte pública e elementos urbanos que compõem a paisagem cultural da região central da cidade.",NULL,NULL,NULL
"eed85302-a6d2-4379-8695-1aa42ae2f241","Planos em um Plano","-30.0537926","-51.2304328","artwork","Escultura pública de caráter abstrato localizada próxima ao Largo dos Açorianos em Porto Alegre. A obra explora relações entre planos e volumes no espaço, integrando o conjunto de intervenções artísticas permanentes dos espaços públicos do Centro Histórico.",NULL,NULL,NULL
"d36e15c4-cbbb-4d27-ba72-d1114ea1866c","Rayo","-30.0541885","-51.2304854","artwork","Escultura pública intitulada ""Rayo"" (Raio), localizada próxima ao Largo dos Açorianos em Porto Alegre. A forma dinâmica da obra evoca energia e movimento, integrando o conjunto de obras de arte permanentes que ornamentam os espaços públicos da capital gaúcha.",NULL,NULL,NULL
"5f580cf9-da79-4541-9164-19b79c885e39","Sem Título","-30.0541129","-51.2306961","artwork","Escultura pública sem título oficial localizada próxima ao Largo dos Açorianos, no Centro Histórico de Porto Alegre. Integra o conjunto de obras de arte permanentes que enriquecem os espaços públicos centrais da cidade.",NULL,NULL,NULL
"e55c526d-e446-49ed-a9e2-ab27b86fe2a8","Paisagem Lunar","-30.0272352","-51.1996941","artwork","Obra de arte pública intitulada ""Paisagem Lunar"", localizada no bairro Floresta, em Porto Alegre. A escultura ou instalação evoca a superfície da lua, estabelecendo um diálogo poético entre o espaço urbano e o cosmos, integrando o patrimônio artístico permanente da cidade.",NULL,NULL,NULL
"0a534376-0b21-42c6-88bf-30e3b66910a7","Âncora","-30.0564948","-51.2310733","artwork","Âncora histórica exposta como peça de patrimônio público próximo ao Largo dos Açorianos, no Centro Histórico de Porto Alegre. Elementos náuticos como âncoras são frequentemente preservados como monumentos, evocando a história portuária e fluvial da cidade às margens do Guaíba.",NULL,NULL,NULL
"f80cf9b0-3ba1-4d00-b095-252434128775","Cavalo e Cavaleiro","-30.0558338","-51.230855","artwork","Escultura representando cavalo e cavaleiro, localizada próxima ao Largo dos Açorianos em Porto Alegre. A temática equestre é recorrente no patrimônio artístico gaúcho, remetendo à tradição dos pampas e à figura do gaúcho, símbolo cultural do Rio Grande do Sul.",NULL,NULL,NULL
"612b367b-acc9-414b-9ec4-9f4a0e102cab","Matriz Urbana","-30.0363654","-51.1874249","artwork","Obra de arte pública intitulada ""Matriz Urbana"", localizada no bairro Petrópolis, em Porto Alegre. A peça dialoga com os conceitos de estrutura e organização do espaço urbano, integrando o patrimônio artístico público da cidade.",NULL,NULL,NULL
"cb64b29e-009f-46bb-b856-36b2f0acc516","Leão de São Marcos","-30.0513786","-51.2294365","artwork","Escultura representando o Leão de São Marcos, símbolo da República de Veneza, localizada próxima ao Largo dos Açorianos em Porto Alegre. A obra homenageia a herança italiana e veneziana na formação cultural do Rio Grande do Sul, integrando o patrimônio artístico público da capital gaúcha.",NULL,NULL,NULL
"6f125adb-78c2-4179-8b07-7ee1ed5b5b08","Homenagem aos 100 Anos da Imigração Judaica no RS","-30.0386395","-51.1739162","artwork","Monumento comemorativo aos 100 anos da imigração judaica no Rio Grande do Sul, localizado no bairro Petrópolis, em Porto Alegre. A obra celebra a contribuição da comunidade judaica para o desenvolvimento cultural, econômico e social do estado gaúcho, reconhecendo a história e a resiliência dos imigrantes e seus descendentes.",NULL,NULL,NULL
"a7001ac5-5a02-4a3d-93d4-0623abcdce61","Galeria Iberê Camargo","-30.0341205","-51.2414431","museum","Espaço expositivo vinculado à Fundação Iberê Camargo, dedicado à obra do pintor gaúcho Iberê Camargo (1914–1994), um dos mais importantes artistas plásticos brasileiros do século XX. A Fundação foi criada em 1995 e sua sede atual, projetada pelo arquiteto português Álvaro Siza, foi inaugurada em 2008. O edifício, premiado com o Leão de Ouro na Bienal de Arquitetura de Veneza (2002) e o Mies Crown Hall Americas Prize (2014), é referência arquitetônica internacional. Localizado às margens do Guaíba, é um dos pontos turísticos mais visitados de Porto Alegre.","https://upload.wikimedia.org/wikipedia/commons/thumb/7/76/Funda%C3%A7%C3%A3o_Ib%C3%AAr%C3%AA_Camargo.jpg/640px-Funda%C3%A7%C3%A3o_Ib%C3%AAr%C3%AA_Camargo.jpg","pt:Fundação Iberê Camargo","https://iberecamargo.org.br/"
"63cc0d9a-52f3-4b3f-96e4-3d90645ee24c","Galeria dos Arcos","-30.0340932","-51.2413331","museum","Espaço cultural localizado no entorno da Fundação Iberê Camargo, na Orla do Guaíba, em Porto Alegre. A galeria integra o conjunto de espaços expositivos da região do bairro Cristal, promovendo artes visuais e intervenções culturais em ambiente privilegiado às margens do Guaíba.",NULL,NULL,NULL
"90097b71-d158-4c37-a384-621b334d5e90","Galeria Lunara","-30.033999","-51.2407678","museum","Espaço cultural localizado próximo à Fundação Iberê Camargo, na Orla do Guaíba, em Porto Alegre. A Galeria Lunara integra o polo cultural da região do bairro Cristal, oferecendo exposições de artes visuais e atividades culturais em um dos pontos mais belos da cidade.",NULL,NULL,NULL
"7a130697-3d2f-43e7-8957-f15f8dc10b73","O Peixe","-30.0329613","-51.2193529","artwork","Escultura pública representando um peixe, localizada no Centro Histórico de Porto Alegre. A obra integra o patrimônio artístico permanente da cidade, estabelecendo vínculo simbólico com o Guaíba e a tradição fluvial da capital gaúcha.",NULL,NULL,NULL
"4fbcddb3-340e-42bc-be76-0c66909bd5ed","Museu de Geologia","-30.0721923","-51.2278539","museum","O Museu de Geologia de Porto Alegre, vinculado à Companhia de Pesquisa de Recursos Minerais (CPRM), está localizado no bairro Menino Deus. O museu apresenta coleções de rochas, minerais e fósseis representativos da geologia do Brasil e do mundo, com ênfase no patrimônio geológico do Rio Grande do Sul. É um importante espaço de divulgação científica e educação geocientífica.",NULL,"pt:Museu de Geologia","http://www.cprm.gov.br"
"f363c6d9-22e4-41e9-a50a-64f5364f8f71","Galeria de Arte do DMAE","-30.0271567","-51.2057402","museum","Espaço cultural do Departamento Municipal de Água e Esgotos (DMAE) de Porto Alegre, dedicado a exposições de artes visuais. A galeria promove a arte local e regional, disponibilizando seus espaços para artistas gaúchos e nacionais, integrando cultura e serviço público na capital gaúcha.",NULL,NULL,"http://dmaegaleriadearte.blogspot.com.br/"
"693c8c01-6e9d-48db-8492-08e4f591ec05","Bará do Mercado","-30.0274752","-51.2278362","artwork","Obra de arte pública integrante do Museu de Percurso do Negro em Porto Alegre. Bará (ou Exu Bará) é um orixá da tradição afro-brasileira, guardião das encruzilhadas e dos caminhos. A instalação celebra a espiritualidade e a presença da cultura africana no Mercado Público de Porto Alegre, um dos mais tradicionais do Brasil e historicamente frequentado pela comunidade negra da cidade.",NULL,NULL,"http://museudepercursodonegroemportoalegre.blogspot.com.br/"
"f21e5c04-bdee-4723-aa94-97239383ebbb","Museu Ruy Tedesco","-30.0666284","-51.2364129","museum","O Museu Engenheiro Ruy Tedesco está localizado no bairro Menino Deus, em Porto Alegre. Preserva a memória e a obra do engenheiro Ruy Tedesco, figura importante para a história da infraestrutura e do desenvolvimento urbano de Porto Alegre e do Rio Grande do Sul. O museu abriga documentos, projetos e objetos relacionados à trajetória profissional e pessoal do homenageado.",NULL,"pt:Museu Engenheiro Ruy Tedesco",NULL
"c58ba788-b868-4747-a27a-1113d119cce3","Canhão","-30.096657","-51.2576215","artwork","Canhão histórico exposto no bairro Belém Novo, zona sul de Porto Alegre, próximo ao clube náutico da região. Peças de artilharia antigas são frequentemente preservadas como monumentos históricos em espaços públicos, evocando o passado militar e colonial da cidade.",NULL,NULL,NULL
"6464ee83-7124-4ed8-88af-bd7579543bf4","Âncora","-30.0973163","-51.2569357","artwork","Âncora histórica exposta no bairro Belém Novo, zona sul de Porto Alegre, próximo à orla do Guaíba. Elemento náutico preservado como monumento histórico, evoca a tradição de navegação fluvial na região e a história marítima da cidade.",NULL,NULL,NULL
"ba192e22-12ba-4c56-9411-4f1d3cf63f91","Leonel de Moura Brizola","-30.0338114","-51.2303452","artwork","Estátua em bronze em tamanho natural do ex-governador e político gaúcho Leonel de Moura Brizola (1922–2004), esculpida pelo artista Otto Dumovich. Inaugurada em janeiro de 2014, está localizada entre a Catedral Metropolitana Madre de Deus e o Palácio Piratini, sede do governo do RS. Brizola foi prefeito de Porto Alegre, governador do RS e do RJ, deputado federal e líder do Movimento da Legalidade em 1961, que resistiu ao golpe militar e garantiu a posse do presidente João Goulart.",NULL,NULL,NULL
"ed24224a-d4f5-4bf7-a44a-e4bfad73a22e","Painel Afrobrasileiro","-30.0281542","-51.2271656","artwork","Painel de arte pública integrante do Museu de Percurso do Negro em Porto Alegre. A obra celebra a cultura afro-brasileira e a contribuição dos povos africanos para a formação da identidade cultural gaúcha, integrando a trajetória histórica da comunidade negra em Porto Alegre.",NULL,NULL,"http://museudepercursodonegroemportoalegre.blogspot.com.br/"
"2c36fdf0-9ab7-4576-9d74-634a34b13f3c","Tambor","-30.0325358","-51.2379039","artwork","Escultura representando um tambor, integrante do Museu de Percurso do Negro em Porto Alegre. O tambor é um instrumento central nas tradições africanas e afro-brasileiras, presente em rituais religiosos, festas e manifestações culturais. A obra celebra a herança rítmica e espiritual da cultura negra na formação de Porto Alegre.",NULL,NULL,"http://museudepercursodonegroemportoalegre.blogspot.com.br/"
"6da37825-1cff-4084-b6b2-9c2eec830d88","Nascente do Arroio das Pedras","-30.0381113","-51.1336505","attraction","Ponto natural de interesse localizado no bairro Lomba do Pinheiro, em Porto Alegre. A nascente do Arroio das Pedras integra a rede hidrográfica da cidade e representa um espaço de valor ambiental, sendo um dos remanescentes de cursos d'água naturais dentro do perímetro urbano de Porto Alegre.",NULL,NULL,NULL
"39afe28f-4166-4749-9b1d-81e2d538ec77","Arcos de Ipanema","-30.148616","-51.2254416","attraction","Formação arquitetônica ou estrutura histórica localizada no bairro Ipanema, zona sul de Porto Alegre, às margens do Guaíba. Os arcos integram o patrimônio histórico e paisagístico da região, próximo à orla que oferece belas vistas do lago Guaíba, especialmente ao entardecer.",NULL,NULL,NULL
"9db6aabb-1bbc-427e-bacd-3e5484c13752","turismo nautico","-30.0187561","-51.2566622","attraction","Ponto de embarque para passeios de barco pelo Guaíba, o lago que margeia Porto Alegre. Os passeios náuticos permitem contemplar a cidade e os pôr do sol do Guaíba sob uma perspectiva única. O Guaíba é um dos mais famosos pelo pôr do sol do mundo, atraindo turistas do Brasil e do exterior.",NULL,NULL,"https://www.barcoportoalegre10.com.br/"
"e80f2f29-1b4c-402b-97b4-2e7a7fc908be","Artsom","-29.9983606","-51.1903255","artwork","Obra de arte pública intitulada ""Artsom"", localizada no bairro Sarandi, em Porto Alegre. A obra integra o patrimônio artístico permanente da cidade, presente em espaços públicos do extremo norte da capital gaúcha.",NULL,NULL,NULL
"820fb934-fb7a-47b0-a2ed-55f43598f618","Cow Parade Sindicato","-30.0391616","-51.2202084","artwork","Escultura de vaca decorada integrante da mostra Cow Parade, evento mundial de arte pública que utiliza vacas em escala real como suporte artístico. As obras são criadas por artistas convidados e distribuídas por espaços públicos da cidade. Esta peça está localizada próxima ao sindicato no Centro Histórico de Porto Alegre.",NULL,NULL,NULL
"ca72591f-fc21-4c70-826c-af63d12069f9","Casa de Cultura Mario Quintana","-30.0311314","-51.2345442","museum","Centro cultural instalado no histórico prédio do Hotel Majestic (construído entre 1916 e 1933, projeto do arquiteto Theodor Wiederspahn), na Rua dos Andradas, 736. Inaugurada em 25 de setembro de 1990, homenageia o poeta porto-alegrense Mário Quintana (1906–1994), que viveu no apartamento 217 do hotel entre 1968 e 1980. O espaço abriga teatros, cinemas, bibliotecas, galerias, os acervos de Elis Regina e Mário Quintana, café com vista para o Guaíba e jardim no terraço. Primeiro grande edifício de Porto Alegre em concreto armado.","https://upload.wikimedia.org/wikipedia/commons/thumb/d/d5/Casa_de_Cultura_Mario_Quintana.jpg/640px-Casa_de_Cultura_Mario_Quintana.jpg","pt:Casa de Cultura Mario Quintana","https://www.ccmq.com.br/"
"bcabbf9c-19ea-486f-88d3-a9672f121b96","Barco Cisne Branco","-30.0256011","-51.2284628","attraction","O Barco Cisne Branco é um veleiro histórico que realiza passeios turísticos pelo Guaíba, o lago que banha Porto Alegre. Os passeios oferecem uma experiência única de contemplar a cidade, a orla e os famosos pôr do sol do Guaíba a partir da água. É um dos passeios náuticos mais tradicionais e românticos da capital gaúcha.",NULL,NULL,"https://www.barcocisnebranco.com.br/"
"feab80a5-8702-4ee6-8bb9-9ed03ff3a778","Arquivo Histórico","-30.0540425","-51.2016508","museum","O Arquivo Histórico de Porto Alegre Moysés Vellinho, localizado no bairro Azenha, é a principal instituição de guarda e preservação do patrimônio documental do município de Porto Alegre. Fundado em 1959, reúne documentos históricos desde o século XVIII até os dias atuais, incluindo plantas, fotografias, registros municipais e coleções privadas doadas à cidade. É referência para pesquisadores, historiadores e cidadãos interessados na história de Porto Alegre.",NULL,"pt:Arquivo Histórico de Porto Alegre Moysés Vellinho","http://ahpoa.blogspot.com.br/"
"ba2d2e61-f7d6-4192-8b05-c84f17af8f2b","Restinga","-30.165753","-51.1551364","artwork","Obra de arte pública localizada no bairro Restinga, zona sul de Porto Alegre. O bairro Restinga é uma das maiores comunidades populares do Brasil e a peça integra o patrimônio artístico e cultural da região, valorizando a identidade local.",NULL,NULL,NULL
"facb8844-1e8e-400e-af69-fe1b7c714d91","Cavalo de Metal","-30.0354982","-51.1766023","artwork","Escultura de cavalo em metal localizada no bairro Petrópolis, em Porto Alegre. A figura equestre é símbolo recorrente na cultura gaúcha, evocando os pampas e a tradição pastoril do Rio Grande do Sul. A obra integra o patrimônio artístico permanente da cidade.",NULL,NULL,NULL
"86ffbe45-89d6-4a5b-a970-3449df2892b8","Monumento a Garibaldi","-30.0437215","-51.220029","attraction","Monumento em homenagem a Giuseppe Garibaldi (1807–1882), herói da unificação italiana e figura histórica relevante para o Rio Grande do Sul, onde viveu entre 1837 e 1848 e participou da Revolução Farroupilha. A obra está localizada na Praça Garibaldi, no Centro Histórico de Porto Alegre, reconhecendo a contribuição do ""herói de dois mundos"" à história gaúcha.",NULL,NULL,NULL
"f2597eaf-781c-44f4-ac99-326768b68888","Gaúcho","-30.0560945","-51.1863552","artwork","Escultura representando a figura do gaúcho, símbolo cultural do Rio Grande do Sul, localizada no bairro Petrópolis, em Porto Alegre. O gaúcho é o habitante dos pampas sul-rio-grandenses, reconhecido pela sua indumentária típica (pilcha), pelo cavalo, pelo chimarrão e pelas tradições culturais preservadas pelo Movimento Tradicionalista Gaúcho.",NULL,NULL,NULL
"deb2c38c-119f-4119-bc42-398eae41279b","Atlas","-30.0252914","-51.1826331","artwork","Escultura representando Atlas, o titã da mitologia grega condenado a sustentar o céu sobre os ombros, localizada no bairro Floresta, em Porto Alegre. A figura de Atlas é símbolo de força, resistência e suporte, e a obra integra o patrimônio artístico público da capital gaúcha.",NULL,NULL,NULL
"f7ab93c9-4619-441d-8732-6ab9669e58a2","Museu das Ilhas","-30.0157427","-51.2609075","museum","Junto ao CTG Madrugada Campeira (esq. Rua Garruchos)",NULL,NULL,"https://www.facebook.com/museu-das-ilhas-978206232226945"
"fef7897c-7f7c-42b7-a6f3-dad142960ceb","Museu Joaquim José Felizardo","-30.0419734","-51.224582","museum","O Museu de Porto Alegre Joaquim José Felizardo está instalado no Solar Lopo Gonçalves, sobrado histórico construído entre 1845 e 1853 no bairro Cidade Baixa. Fundado em 1979, dedica-se à história e memória de Porto Alegre por meio de três acervos: tridimensional, iconográfico e arqueológico. Homenageia o historiador e criador da Secretaria Municipal de Cultura. O Solar, representativo da arquitetura colonial-neoclássica luso-brasileira, foi tombado como patrimônio histórico em 1979 e é um dos mais belos edifícios históricos da cidade.","https://upload.wikimedia.org/wikipedia/commons/thumb/5/5d/Solar_Lopo_Gon%C3%A7alves.jpg/480px-Solar_Lopo_Gon%C3%A7alves.jpg","pt:Museu de Porto Alegre Joaquim Felizardo","https://www.museudeportoalegre.com/"
"969502cb-7507-4f31-840c-b4cbd8982dc6","Monumento ao Expedicionário","-30.0384007","-51.214857","artwork","Monumento em granito e bronze inaugurado em 16 de julho de 1957 no Parque Farroupilha, em homenagem aos ""pracinhas"" da Força Expedicionária Brasileira (FEB) que combateram na Segunda Guerra Mundial (1939–1945). Com 17 metros de altura, foi projetado pelo escultor Antônio Caringi (autor também da Estátua do Laçador) e pelo arquiteto Luiz Carlos de Nascimento e Silva. A ideia partiu de uma campanha do jornal Correio do Povo em 1946. O monumento homenageia os três ramos das forças armadas e inclui a alegoria da Bravura (figura feminina em bronze). Também chamado de Arco da Redenção.","https://upload.wikimedia.org/wikipedia/commons/thumb/8/85/Monumento_ao_Expedicion%C3%A1rio_-_Porto_Alegre.jpg/480px-Monumento_ao_Expedicion%C3%A1rio_-_Porto_Alegre.jpg","pt:Monumento ao Expedicionário",NULL
"3ef118b2-c165-4ef0-819e-812a3d48869a","Museu Israelita","-30.0325241","-51.2125664","museum","O Museu Israelita de Porto Alegre está localizado no bairro Bom Fim, região historicamente associada à comunidade judaica da cidade. O museu preserva e divulga a memória, a cultura e a história dos judeus no Rio Grande do Sul, com acervo de objetos rituais, documentos e registros fotográficos da vida comunitária.",NULL,NULL,NULL
"225e637f-73fa-471e-a8bd-f4ca99affa18","Instituto Cultural Judaico Marc Chagal","-30.0324249","-51.2126083","museum","O Instituto Cultural Judaico Marc Chagall é uma instituição dedicada à preservação e difusão da cultura, história e memória judaica no Rio Grande do Sul. Localizado no bairro Bom Fim, em Porto Alegre, promove exposições, eventos culturais, pesquisas e atividades educativas relacionadas à contribuição judaica para a sociedade gaúcha e brasileira. Homenageia o pintor Marc Chagall (1887–1985), um dos maiores artistas do século XX.",NULL,NULL,"https://chagall.org.br/"
"6b4eb296-b394-4ca1-a4db-e164db025dd0","Travessa dos Venezianos","-30.0421726","-51.222533","attraction","A Travessa dos Venezianos é um charmoso corredor histórico localizado no bairro Cidade Baixa, em Porto Alegre. O local preserva a memória da comunidade italiana, especialmente dos imigrantes venezianos que se estabeleceram na cidade. A travessa é conhecida por suas fachadas coloridas e atmosfera histórica, sendo um ponto turístico que evoca a herança cultural italiana na capital gaúcha.",NULL,"pt:Travessa dos Venezianos",NULL
"1bc0a7f6-0fe7-472a-959a-13cf24cfa5c6","Monumento do Gaúcho Oriental","-30.0371251","-51.2158299","artwork","Monumento em homenagem ao gaúcho oriental (uruguaio), evocando os laços históricos, culturais e fraternais entre o povo gaúcho do Rio Grande do Sul e o Uruguai. A obra está localizada no Parque Farroupilha, em Porto Alegre, e celebra a identidade compartilhada entre os dois lados da fronteira do Rio da Prata.",NULL,NULL,NULL
"bf8c6625-468e-429a-9789-ffe87a6151ee","Supercuia","-30.0424312","-51.2339418","artwork","Escultura de grande porte representando uma cuia, o recipiente tradicional utilizado para tomar chimarrão, bebida símbolo da cultura gaúcha. Localizada no bairro Bom Fim, em Porto Alegre, a ""Supercuia"" é uma obra de arte pública que celebra com humor e monumentalidade um dos ícones mais queridos da identidade cultural do Rio Grande do Sul.",NULL,NULL,NULL
"4b6f1f7f-4c63-4701-870e-204ff32aff70","Tributo ao Municipalismo","-30.0494044","-51.2239527","artwork","Monumento em tributo ao municipalismo, localizado no Centro Histórico de Porto Alegre. A obra celebra a importância do poder local e da autonomia municipal na organização política e social do Brasil, valorizando a democracia e a gestão participativa nas cidades.",NULL,NULL,NULL
"ef5db304-8ada-4152-bbbd-cb1f62ab9e7b","Antera","-30.0254791","-51.199585","artwork","Escultura pública intitulada ""Antera"", localizada no bairro Floresta, em Porto Alegre. O nome evoca a parte masculina da flor (antera), sugerindo temas de fertilidade, natureza e vida. A obra integra o patrimônio artístico permanente dos espaços públicos da capital gaúcha.",NULL,NULL,NULL
"95c8332a-643f-4e5c-b6e7-4e243fc0dab6","Loureiro da Silva","-30.0314244","-51.2241482","artwork","Busto ou estátua em homenagem a José Loureiro da Silva (1905–1959), prefeito de Porto Alegre de 1937 a 1943, responsável pela execução de importantes obras de urbanização na cidade, incluindo a abertura da Avenida Farrapos e outras intervenções que modernizaram a capital gaúcha.",NULL,NULL,NULL
"678e9158-222a-4d93-a1e7-a44d25a61143","Busto San Martín","-30.031875","-51.2231892","artwork","Busto em homenagem ao General José de San Martín (1778–1850), herói da independência da Argentina, Chile e Peru, considerado o ""Libertador da América do Sul"". A presença deste monumento em Porto Alegre reflete a relação histórica e cultural entre o Brasil e os países do Prata, celebrando a fraternidade sul-americana.",NULL,NULL,NULL
"16196ee3-f630-440f-aece-c8bd93724ebc","Tape Porã","-30.0295183","-51.2234433","artwork","Obra de arte pública cujo nome em guarani significa ""Caminho Bonito"" ou ""Boa Trilha"". A peça integra o patrimônio artístico permanente de Porto Alegre e homenageia a cultura indígena guarani, povo que habitava a região antes da colonização europeia. Localizada no Centro Histórico, a obra convida à reflexão sobre as raízes indígenas da cidade.",NULL,NULL,NULL
"6a234b03-3021-4519-8229-3f56d0858cff","Busto do General José Gervasio Artigas","-30.0292681","-51.2303854","memorial","Busto em homenagem ao General José Gervasio Artigas (1764–1850), herói nacional do Uruguai e figura central na história da Bacia do Prata. Artigas lutou pela autonomia dos povos platinos e é símbolo de liberdade e federalismo. O monumento, localizado no Centro Histórico de Porto Alegre, celebra a fraternidade histórica entre o Rio Grande do Sul e o Uruguai.",NULL,NULL,NULL
"ece96f39-a2d1-4ee4-87a6-cfb0a0323bcf","Monumento ao Conde de Porto Alegre","-30.0318254","-51.2246249","monument","Monumento em homenagem ao Marechal Manuel Marques de Sousa, Conde de Porto Alegre (1804–1875), militar gaúcho que participou da Guerra do Paraguai, da Revolução Farroupilha e de outros conflitos do Império Brasileiro. O Conde de Porto Alegre é um dos mais importantes personagens militares da história do Rio Grande do Sul e da cidade que leva seu título nobiliárquico.",NULL,"pt:Monumento ao Conde de Porto Alegre",NULL
"73a030b6-6aaa-4d8b-a275-f365caed9e83","Monumento a José Loureiro da Silva","-30.0373227","-51.2377061","memorial","Monumento em homenagem a José Loureiro da Silva (1905–1959), prefeito de Porto Alegre entre 1937 e 1943 (e novamente de 1952 a 1953). Durante sua gestão, foi responsável por importantes obras de urbanização, como a abertura da Avenida Farrapos, a construção do Viaduto Otávio Rocha e a modernização do sistema viário da cidade. Localizado próximo à Fundação Iberê Camargo, na Orla do Guaíba.",NULL,NULL,NULL
"5e644693-ca0a-4416-a13f-c4870a12a0f6","Monumento a Zumbi dos Palmares","-30.0379097","-51.2269822","monument","Monumento em homenagem a Zumbi dos Palmares (1655–1695), líder do Quilombo dos Palmares, maior reduto de resistência negra da história colonial brasileira, localizado em Alagoas. Zumbi é símbolo de resistência à escravidão e herói nacional afro-brasileiro. O dia 20 de novembro, data de sua morte, é o Dia da Consciência Negra. O monumento está localizado no Centro Histórico de Porto Alegre.",NULL,NULL,NULL
"68088aa7-25a1-4ea3-b0e4-89d912135a44","Herma a Antônio Carlos Lopes","-30.0295366","-51.2314736","memorial","Herma (busto sobre pilastra) em homenagem a Antônio Carlos Lopes, personalidade ligada à cultura e à imprensa porto-alegrense. Localizada no Centro Histórico de Porto Alegre, a peça integra o conjunto de homenagens a personagens relevantes da história da cidade.",NULL,NULL,NULL
"3400a291-2d03-4edb-8f12-658ea5e11dce","Herma a Caldas Júnior","-30.030248","-51.231177","memorial","Herma em homenagem a Caldas Júnior (1868–1913), fundador do Correio do Povo, o mais antigo jornal em circulação no Rio Grande do Sul, fundado em 1895. Caldas Júnior foi uma figura central para a imprensa gaúcha e para a vida cultural de Porto Alegre no início do século XX. A herma está localizada no Centro Histórico da cidade.",NULL,NULL,NULL
"098f8922-a7b8-427f-9ced-f9c0c5a3be45","Herma a Francisco de Leonardo Truda","-30.0299934","-51.2304567","memorial","Herma em homenagem a Francisco de Leonardo Truda (1878–1942), jornalista, escritor e intelectual gaúcho que exerceu grande influência na vida cultural e política do Rio Grande do Sul no início do século XX. Truda foi diretor do Correio do Povo e colaborou com diversas publicações da época.",NULL,NULL,NULL
"bed5a7bd-93d3-42a3-bfdf-274d12a63653","Herma ao Barão de Santo Ângelo","-30.0300469","-51.2310464","memorial","Herma em homenagem ao Barão de Santo Ângelo, título nobiliárquico do Império Brasileiro relacionado à cidade de Santo Ângelo, no Rio Grande do Sul. O monumento está localizado no Centro Histórico de Porto Alegre e integra o conjunto de homenagens a figuras históricas relevantes para o estado gaúcho.",NULL,NULL,NULL
"78630732-3704-4f14-8085-4498bfe0facd","Monumento a José Bertaso","-30.0301308","-51.2308168","memorial","Monumento em homenagem a José Bertaso, empresário e fundador da Livraria do Globo, uma das mais importantes editoras e livrarias da história cultural do Rio Grande do Sul. A Livraria do Globo, fundada em Porto Alegre no final do século XIX, publicou obras de grandes escritores brasileiros e foi um centro cultural fundamental para o Sul do Brasil.",NULL,NULL,NULL
"b6c82cd6-64f5-4db6-a69c-1d08991e2b6d","Busto de João Cândido","-30.0516709","-51.2300329","memorial","Busto em homenagem a João Cândido Felisberto (1880–1969), o ""Almirante Negro"", líder da Revolta da Chibata de 1910, movimento que aboliu os castigos corporais na Marinha Brasileira. João Cândido nasceu em Santo Antônio da Patrulha (RS) e é símbolo da resistência negra no Brasil. O busto está localizado próximo ao Largo dos Açorianos, no Centro Histórico de Porto Alegre.",NULL,NULL,NULL
"c4c01960-fdfb-4a6a-9e53-542868121a93","Busto do Almirante Marquês de Tamandaré","-30.0565145","-51.2310993","memorial","Busto em homenagem ao Almirante Joaquim Marques Lisboa, Marquês de Tamandaré (1807–1897), patrono da Marinha Brasileira e um dos maiores heróis navais da história do Brasil. Natural de Rio Grande (RS), Tamandaré participou de diversas batalhas navais, incluindo a Guerra do Paraguai. O busto está localizado próximo ao Largo dos Açorianos.",NULL,NULL,NULL
"13e59270-d90e-4d89-91a2-c679a6df0df7","Monumento a Plácido de Castro","-30.0566813","-51.2317952","memorial","Monumento em homenagem a José Plácido de Castro (1873–1908), militar gaúcho que liderou a Revolução Acreana (1902–1903), movimento que resultou na incorporação do Acre ao território brasileiro. Plácido de Castro é herói nacional e símbolo do expansionismo territorial brasileiro. O monumento está localizado no Centro Histórico de Porto Alegre.",NULL,NULL,NULL
"7c2a0f5b-65e2-4af0-8b16-6cc9d9b7f8f5","Torre de Ferro","-30.0480886","-51.2325621","artwork","Escultura vertical em ferro localizada no Centro Histórico de Porto Alegre. A peça integra o conjunto de obras de arte pública que marcam os espaços urbanos da capital gaúcha, estabelecendo diálogo entre arte, arquitetura e paisagem.",NULL,NULL,NULL
"bc693f85-d67a-4d1f-8c7a-6aefa7458fe5","Monumento a Manoel Raimundo Soares","-30.0503832","-51.2323","memorial","Monumento em homenagem a Manoel Raimundo Soares (1939–1966), militante político gaúcho assassinado durante a ditadura militar brasileira (1964–1985). Soares foi preso, torturado e morto pelos agentes do regime. Seu corpo, com as mãos atadas, foi encontrado boiando no Rio Jacuí, sendo chamado de ""O Anjo das Pernas Tortas"". O monumento está localizado no Centro Histórico de Porto Alegre e é um símbolo da resistência democrática.",NULL,NULL,NULL
"cc05e7a1-1128-4776-98e6-5e8485afb304","Monumento ao Centenário da Imigração Judaica","-30.0359385","-51.2110474","monument","Monumento comemorativo ao centenário da imigração judaica no Rio Grande do Sul, localizado no bairro Bom Fim, em Porto Alegre. A obra celebra a chegada dos primeiros imigrantes judeus ao estado, sua contribuição para o desenvolvimento econômico, cultural e social do RS e a formação de uma das mais expressivas comunidades judaicas do Brasil.",NULL,NULL,NULL
"2e69b405-03df-4993-913a-d2c05d7f951e","Santos Dumont","-30.0381602","-51.2149518","memorial","Memorial ou busto em homenagem a Alberto Santos Dumont (1873–1932), inventor brasileiro considerado por muitos o ""Pai da Aviação"". Santos Dumont realizou o histórico voo do 14-Bis em Paris, em 1906, e é patrono da Aeronáutica Brasileira. O memorial está localizado no Parque Farroupilha, em Porto Alegre.",NULL,NULL,NULL
"a158ee85-40ec-419f-b5e9-e9916698d7b7","Marco da Carris","-30.0347311","-51.2220535","monument","Marco histórico em homenagem à CARRIS (Companhia Carris Porto-Alegrense), empresa responsável pelo transporte público de bondes e ônibus em Porto Alegre. Os bondes elétricos circularam pela cidade de 1908 a 1970, sendo um dos sistemas de transporte mais importantes da história urbana da capital gaúcha. O marco está localizado no Centro Histórico.",NULL,NULL,NULL
"7be29800-9d07-496c-a77c-609e0a56020e","Monumento ao Lions Clube Balneários","-30.1040315","-51.2530188","memorial","Monumento doado pelo Lions Clube Balneários à cidade de Porto Alegre, localizado na zona sul da capital. O Lions Club International é uma organização humanitária mundial dedicada ao serviço comunitário, e os monumentos doados pelos clubes locais marcam o compromisso com a comunidade.",NULL,NULL,NULL
"7dd6b043-2867-4b62-822e-779f8376f67b","Monumento ao Ano Internacional da Criança","-30.0278356","-51.201574","memorial","Monumento em comemoração ao Ano Internacional da Criança, proclamado pela ONU em 1979, que marcou o 20º aniversário da Declaração dos Direitos da Criança. A obra está localizada no bairro Floresta, em Porto Alegre, e celebra os direitos, a proteção e o bem-estar das crianças.",NULL,NULL,NULL
"d2811f25-5e5e-40a5-ba64-4fa7ab5db756","Monumento ao Lions Clube Independência","-30.0278679","-51.2003229","memorial","Monumento doado pelo Lions Clube Independência à cidade de Porto Alegre. Localizado no bairro Floresta, o monumento marca a contribuição da filial local do Lions Club International às ações comunitárias e humanitárias na capital gaúcha.",NULL,NULL,NULL
"04a76db7-351f-44e9-a6bd-7c3a6a5ab757","Monumento a Johann Wolfgang von Goethe","-30.0283958","-51.2003725","memorial","Monumento em homenagem a Johann Wolfgang von Goethe (1749–1832), o maior escritor da língua alemã e um dos maiores da literatura universal. Autor do ""Fausto"" e de ""Os Sofrimentos do Jovem Werther"", Goethe exerceu influência profunda na cultura ocidental. O monumento está localizado no bairro Floresta, em Porto Alegre, e homenageia a forte herança cultural alemã no Rio Grande do Sul.",NULL,NULL,NULL
"d7ad2d2f-4b58-4e1a-87c1-29ec5a4d0566","Monumento ao Rotary Club","-30.0282175","-51.2008042","memorial","Monumento doado pelo Rotary Club à cidade de Porto Alegre, localizado no bairro Floresta. O Rotary International é uma das maiores organizações humanitárias do mundo, e este monumento marca a presença e a contribuição do clube local às ações comunitárias da capital gaúcha.",NULL,NULL,NULL
"11ff527a-4143-47d2-8cd6-2305313c67cc","Busto de Maurício Sirotsky Sobrinho","-30.0397023","-51.237552","memorial","Busto em homenagem a Maurício Sirotsky Sobrinho (1931–1990), empresário gaúcho e fundador do Grupo RBS (Rede Brasil Sul de Comunicações), maior conglomerado de mídia do Sul do Brasil. Sirotsky foi uma figura central para o desenvolvimento da comunicação e da cultura no Rio Grande do Sul. O busto está localizado próximo à Orla do Guaíba.",NULL,NULL,NULL
"2628a30a-14bb-4f44-a442-a696cd41dc6f","Homenagem a José Antônio Daudt","-30.0266226","-51.2013906","memorial","Memorial em homenagem a José Antônio Daudt, personalidade ligada à história política e administrativa de Porto Alegre. O memorial está localizado no bairro Floresta, integrando o conjunto de homenagens a personagens relevantes da história da cidade.",NULL,NULL,NULL
"470a5f58-bca2-4fa4-97ec-ad2464658c1b","Homenagem ao Rotary Club de Porto Alegre Norte","-30.0251712","-51.2012585","memorial","Memorial em homenagem ao Rotary Club de Porto Alegre Norte, reconhecendo a atuação humanitária e comunitária do clube na região norte da capital gaúcha. Localizado no bairro Floresta, em Porto Alegre.",NULL,NULL,NULL
"c3a151c2-1cf1-4504-a233-21b6cd59a97a","Homenagem aos Taxistas Mortos em Serviço","-30.0423798","-51.2333608","memorial","Memorial em homenagem aos taxistas que perderam a vida em serviço na cidade de Porto Alegre. A obra presta tributo aos profissionais do transporte individual que foram vítimas de violência ou acidentes no exercício de sua profissão, reconhecendo os riscos enfrentados cotidianamente por esses trabalhadores.",NULL,NULL,NULL
"658bf1a5-407f-4a95-8046-98769872b1ce","Pedra da Memória","-30.0396429","-51.2378081","memorial","Memorial em forma de pedra localizado próximo à Orla do Guaíba, em Porto Alegre. A ""Pedra da Memória"" é um espaço de recordação e homenagem a pessoas ou eventos, integrando o patrimônio memorialístico da capital gaúcha.",NULL,NULL,NULL
"8beb2adc-2dcf-423c-aed4-d0851ca5b4e1","Monumento Gaúcho Oriental","-30.0348541","-51.2206334","monument","Monumento em homenagem ao gaúcho oriental (uruguaio), celebrando os laços históricos e culturais entre o povo gaúcho do Rio Grande do Sul e o Uruguai. A obra está localizada no Centro Histórico de Porto Alegre e evoca a identidade compartilhada entre as duas margens do Rio da Prata.",NULL,NULL,NULL
"3499423d-aade-46d4-ba03-b2dda6ef0750","Homenagem ao Centenário de Nascimento do Deputado Carlos Santos","-30.0436946","-51.2042676","memorial","Memorial comemorativo ao centenário de nascimento do Deputado Carlos Santos, político gaúcho que teve atuação relevante na história legislativa do Rio Grande do Sul. O memorial está localizado no bairro Azenha, em Porto Alegre.",NULL,NULL,NULL
"576d97ce-1f06-4376-b5cc-c6b9b8f83788","Homenagem ao PM Valdeci de Abreu Lopes","-30.0428553","-51.2042113","memorial","Memorial em homenagem ao policial militar Valdeci de Abreu Lopes, morto em serviço na cidade de Porto Alegre. O memorial presta tributo ao sacrifício dos agentes de segurança pública que perderam a vida no cumprimento do dever de proteger a comunidade.",NULL,NULL,NULL
"ecef47a6-ef74-419a-959a-1e482dbf28cc","Monumento ao Rotary Club de Porto Alegre Norte","-30.0294291","-51.2008077","monument","Monumento doado pelo Rotary Club de Porto Alegre Norte à cidade, reconhecendo a atuação humanitária e comunitária da organização na região norte da capital gaúcha. Localizado no bairro Floresta, em Porto Alegre.",NULL,NULL,NULL
"1f879c25-9829-4e37-b04a-b6c0648799ff","Coluna Israelita","-30.0336457","-51.2160712","monument","Coluna comemorativa da comunidade judaica de Porto Alegre, localizada no bairro Bom Fim, região historicamente associada à comunidade israelita da cidade. A coluna homenageia a contribuição dos imigrantes judeus e seus descendentes para o desenvolvimento cultural, econômico e social de Porto Alegre.",NULL,NULL,NULL
"f8b7513e-eb2a-4b65-91c5-7ff732992eb3","Busto de Carlos Gomes","-30.0350054","-51.2140092","monument","Busto em homenagem a Antônio Carlos Gomes (1836–1896), compositor brasileiro considerado o maior ópera do século XIX nas Américas. Sua obra mais famosa, ""O Guarani"" (1870), foi apresentada com grande sucesso no Teatro alla Scala de Milão. O busto está localizado no Parque Farroupilha, em Porto Alegre.",NULL,NULL,NULL
"beaa0819-1d5a-4413-a3cf-ca025bdeaab8","Busto de Chopin","-30.0347287","-51.2139578","monument","Busto em homenagem a Frédéric Chopin (1810–1849), pianista e compositor polonês, um dos maiores músicos românticos da história. Suas obras para piano solo são consideradas entre as mais expressivas da literatura musical. O busto está localizado no Parque Farroupilha, em Porto Alegre, integrando o conjunto de homenagens a músicos universais presentes no parque.",NULL,NULL,NULL
"40f78c6b-bc77-4a34-8ad4-562843c13ec1","Monumento a Beethoven","-30.0347697","-51.213872","monument","Monumento em homenagem a Ludwig van Beethoven (1770–1827), compositor alemão considerado um dos maiores gênios da história da música ocidental. Suas nove sinfonias, seus concertos para piano e suas sonatas são obras-primas da humanidade. O monumento está localizado no Parque Farroupilha, em Porto Alegre.",NULL,NULL,NULL
"d9dbdadb-4732-4860-8e07-6e697c33f8d4","Obelisco à Comunidade Sírio-Libanesa","-30.0354607","-51.2177687","monument","Obelisco em homenagem à comunidade sírio-libanesa de Porto Alegre, localizado no Parque Farroupilha. A imigração síria e libanesa para o Rio Grande do Sul, iniciada no final do século XIX, trouxe importantes contribuições para o comércio, a cultura e a gastronomia da capital gaúcha.",NULL,NULL,NULL
"87b601a8-909f-406c-91f7-f861c08b381f","Imperatriz Leopoldina","-30.0347791","-51.220929","monument","Monumento em homenagem à Imperatriz Maria Leopoldina da Áustria (1797–1826), primeira imperatriz do Brasil e esposa de Dom Pedro I. Leopoldina desempenhou papel fundamental na Independência do Brasil em 1822, sendo uma das mais importantes figuras femininas da história brasileira. O monumento está localizado no Centro Histórico de Porto Alegre.",NULL,NULL,NULL
"5e989883-c609-43ba-b3e1-8cac86ba43a2","Torii","-30.0356375","-51.2157841","monument","Torii é um portão tradicional japonês que marca a entrada de um santuário xintoísta. O torii presente no Parque Farroupilha, em Porto Alegre, foi doado pela comunidade japonesa e homenageia a imigração nipônica no Rio Grande do Sul. É um símbolo da diversidade cultural que caracteriza a capital gaúcha.",NULL,NULL,NULL
"ad303b42-2054-4089-95a0-1524d6c37bab","Homenagem aos Fundadores do Veleiros do Sul","-30.0966733","-51.2575772","memorial","Memorial em homenagem aos fundadores do Veleiros do Sul, clube náutico localizado no bairro Belém Novo, zona sul de Porto Alegre, às margens do Guaíba. O clube é uma das mais tradicionais associações de vela do Rio Grande do Sul.",NULL,NULL,NULL
"f5683df7-731d-4faf-b988-678fb26856fd","Monumento ao Comodoro Jorge Bertschinger","-30.0969104","-51.2568917","memorial","Monumento em homenagem ao Comodoro Jorge Bertschinger, personalidade relevante para o esporte náutico e a história do iatismo no Rio Grande do Sul. O memorial está localizado no bairro Belém Novo, próximo ao Veleiros do Sul, em Porto Alegre.",NULL,NULL,NULL
"6d9f0a48-9d6d-4c2b-95d4-9782b46ff0aa","Monumento a Tamandaré","-30.0955567","-51.2562098","memorial","Monumento em homenagem ao Almirante Joaquim Marques Lisboa, Marquês de Tamandaré (1807–1897), patrono da Marinha Brasileira. Natural de Rio Grande (RS), Tamandaré é o maior herói naval da história brasileira, tendo participado de batalhas na Guerra do Paraguai e outros conflitos. O monumento está localizado no bairro Belém Novo, próximo à marina local.",NULL,NULL,NULL
"195fc6be-4d41-47fd-a319-111e0f809ac4","Homenagem à Imigração Alemã no Brasil","-30.0237338","-51.1565299","memorial","Memorial em homenagem à imigração alemã no Brasil, localizado no bairro Sarandi, em Porto Alegre. Os imigrantes alemães chegaram ao Rio Grande do Sul a partir de 1824, sendo São Leopoldo (RS) o primeiro polo de colonização germânica. A imigração alemã moldou profundamente a cultura, a arquitetura, a gastronomia e a economia do estado gaúcho.",NULL,NULL,NULL
"b4d2a3ab-16e4-485b-9567-4592a5a4d51f","Estátua de Fernandão","-30.0669412","-51.2364426","memorial","Estátua em homenagem a Fernando Luís Rosa, o ""Fernandão"" (1978–2014), atacante gaúcho que jogou no Grêmio e na seleção brasileira. Considerado ídolo do clube tricolor, Fernandão faleceu tragicamente em um acidente de helicóptero. A estátua está localizada próxima ao Estádio Olímpico Monumental, no bairro Menino Deus.",NULL,NULL,NULL
"b3dfe79c-c2e2-4c8e-bfb3-644198d9b3d9","Homenagem ao Almirante Tamandaré","-30.0416282","-51.1824233","memorial","Memorial em homenagem ao Almirante Tamandaré, patrono da Marinha Brasileira, localizado no bairro Petrópolis, em Porto Alegre. A homenagem reconhece a importância de Tamandaré para a história naval do Brasil e seu legado como figura exemplar das Forças Armadas brasileiras.",NULL,NULL,NULL
"b44b8420-19e5-442c-8b7c-b584d4841963","Memorial Empresa de Onibus Belem","-30.2098055","-51.1883893","memorial","Memorial da Empresa de Ônibus Belém, localizado no bairro Belém Novo, zona sul de Porto Alegre. O memorial preserva a história e a tradição da viação Belém, uma das transportadoras de passageiros que contribuiu para a mobilidade urbana na região sul da capital gaúcha.",NULL,NULL,"http://www.viacaobelemnovo.com.br"
"de4127bc-3d9e-4731-8f1e-5aea39078300","Grêmio FBPA","-30.0286543","-51.2006294","monument","Monumento em homenagem ao Grêmio Foot-Ball Porto Alegrense (GBPA), fundado em 15 de setembro de 1903, um dos maiores clubes de futebol do Brasil. O Grêmio é tricampeão mundial (1983, 1983 Intercontinental e Copa Libertadores múltiplas vezes) e ídolo da torcida gaúcha. O monumento está localizado no bairro Floresta, em Porto Alegre.",NULL,NULL,NULL
"901864e5-59c7-4565-816b-24782db0543a","Memorial Olímpico","-30.0092693","-51.1883565","memorial","O Memorial Olímpico de Porto Alegre está localizado no bairro Sarandi e homenageia os atletas gaúchos que representaram o Brasil nos Jogos Olímpicos. O Rio Grande do Sul tem uma longa tradição esportiva olímpica, com atletas de destaque em diversas modalidades. O memorial celebra o esforço, a dedicação e as conquistas dos esportistas gaúchos no cenário internacional.",NULL,NULL,NULL
"5208a7dd-6e0c-40e6-a318-73029a2fe302","Panteão dos Laureados","-30.0094113","-51.1881564","memorial","O Panteão dos Laureados, localizado no bairro Sarandi, em Porto Alegre, presta homenagem aos atletas gaúchos que conquistaram medalhas em competições olímpicas e internacionais. O espaço integra o conjunto de memórias esportivas da capital gaúcha e celebra as conquistas dos esportistas do Rio Grande do Sul no cenário mundial.",NULL,NULL,NULL
"395a31b3-eaf9-4c04-9253-7d1bc53b5be7","Homenagem a João Goulart","-30.0365573","-51.240995","memorial","Memorial em homenagem a João Goulart (1919–1976), o ""Jango"", presidente do Brasil de 1961 a 1964 e figura central da história política gaúcha. Goulart foi deposto pelo golpe militar de 1964 e viveu no exílio até a abertura política. Natural de São Borja (RS), é símbolo do trabalhismo e da democracia no Brasil. O memorial está localizado próximo à Orla do Guaíba, em Porto Alegre.",NULL,NULL,NULL
"21b20417-9e81-4238-95fc-f6bd2b1ad9b4","Duque de Caxias","-30.0381971","-51.2150185","memorial","Memorial ou busto em homenagem ao Marechal Luís Alves de Lima e Silva, Duque de Caxias (1803–1880), patrono do Exército Brasileiro e considerado o maior herói militar da história do Brasil. Caxias participou de diversas guerras e pacificações, sendo símbolo de lealdade e bravura. O memorial está localizado no Parque Farroupilha, em Porto Alegre.",NULL,NULL,NULL
"85ac3b03-7aba-4940-9478-568f1ff3f7ca","Almirante Tamandaré","-30.0382411","-51.2150922","memorial","Memorial em homenagem ao Almirante Tamandaré, patrono da Marinha Brasileira, localizado no Parque Farroupilha, em Porto Alegre. Natural de Rio Grande (RS), o Marquês de Tamandaré é o maior herói naval do Brasil, símbolo de coragem e patriotismo das Forças Armadas brasileiras.",NULL,NULL,NULL
"ab66a3d6-1efd-4d0c-adf0-ce0498115aee","Povo Cigano","-30.0282668","-51.2004831","memorial","Memorial em homenagem ao Povo Cigano, localizado no bairro Floresta, em Porto Alegre. A obra reconhece a presença e a contribuição da comunidade cigana na formação cultural do Brasil e do Rio Grande do Sul, celebrando a diversidade étnica e cultural da nação.",NULL,NULL,NULL
"438d4268-a034-4ae1-b1f8-94d92c53519f","Mosaico Rosa dos Ventos","-29.9910528","-51.1843292","memorial","Mosaico em forma de rosa dos ventos localizado no bairro Sarandi, em Porto Alegre. A rosa dos ventos é símbolo de orientação e navegação, evocando os quatro pontos cardeais. O mosaico integra o patrimônio artístico público da região norte da capital gaúcha.",NULL,NULL,NULL
"bd54727b-e68a-4d9c-8025-872bf90ce4e2","Pórtico da UFRGS Campus do Vale","-30.0762526","-51.1248862","monument","Pórtico de entrada do Campus do Vale da Universidade Federal do Rio Grande do Sul (UFRGS), localizado no bairro Agronomia. A UFRGS é a maior e mais importante universidade federal do Sul do Brasil, fundada em 1895. O Campus do Vale abriga institutos de ciências exatas, biológicas e tecnológicas, além de importantes museus universitários. O pórtico marca a entrada principal do campus.",NULL,NULL,NULL
"95bd08af-cad5-468b-8cf5-57d5ca472d7e","Homenagem aos Servidores Municipais","-30.0346915","-51.2413474","memorial","Memorial em homenagem aos servidores municipais de Porto Alegre, localizado próximo à Fundação Iberê Camargo, na Orla do Guaíba. A obra reconhece a dedicação e o trabalho dos funcionários públicos municipais que contribuem para o funcionamento e o desenvolvimento da capital gaúcha.",NULL,NULL,NULL
"c1c6c158-738a-4d27-9f2c-5e2a90b4df56","Bonde","-30.0415008","-51.2235705","memorial","Memorial preservando um bonde histórico, evocando a era dos bondes elétricos em Porto Alegre, que circularam pela cidade de 1908 a 1970. Os bondes foram o principal meio de transporte coletivo da capital gaúcha por décadas, e sua memória é preservada como patrimônio cultural da cidade. O memorial está localizado no Centro Histórico.",NULL,NULL,NULL
"ddfa7fd9-ffe5-423f-af86-72449d4fad92","Escultura de Pedro Rocha","-30.0294116","-51.2013109","monument","Escultura em homenagem a Pedro Rocha, ex-jogador do Grêmio. Autores: Mario Cladera e Vinicius Vieira.",NULL,NULL,NULL
"479d053e-5ff5-4b14-a8c7-817ddf552b8d","Símbolo da luta contra a violência no trânsito","-30.0609262","-51.2106216","monument","Monumento simbólico de conscientização sobre a violência no trânsito, localizado no bairro Menino Deus, em Porto Alegre. A obra integra as ações de educação para o trânsito da cidade, alertando para os riscos da imprudência nas ruas e prestando homenagem às vítimas de acidentes.",NULL,NULL,NULL
"66e343f8-a021-4b66-8e19-2f4084b4e965","super tinga","-30.1531856","-51.1358503","monument","Monumento em homenagem a Tinga, nome popular de Célio Fernando Soares Rodrigues, ídolo do futebol gaúcho. Localizado no bairro Belém Novo, na zona sul de Porto Alegre.",NULL,NULL,NULL
"7793c8b3-31bb-4475-a65f-f95bdf46f512","Monumento a Garibaldi","-30.0437215","-51.220029","attraction","Monumento em homenagem a Giuseppe Garibaldi (1807–1882), herói da unificação italiana e figura histórica relevante para o Rio Grande do Sul, onde viveu entre 1837 e 1848 e participou da Revolução Farroupilha. Localizado na Praça Garibaldi, no Centro Histórico de Porto Alegre.",NULL,NULL,NULL
"db3fa600-2ceb-4f00-a8fd-0bd2f82f6447","Busto Júlio de Castilhos","-30.0287979","-51.2083878","memorial","Busto em homenagem a Júlio Prates de Castilhos (1860–1903), político positivista gaúcho que foi presidente do Rio Grande do Sul de 1893 a 1898. Castilhos foi figura central na consolidação da República no RS e foi o grande mentor de Borges de Medeiros. O bairro Júlio de Castilhos e o Museu Júlio de Castilhos levam seu nome. O busto está localizado no bairro Floresta, em Porto Alegre.",NULL,NULL,NULL
"1a51239e-04c9-43b6-87db-0c302e1bfff4","Fernando Chagas Riet","-30.0561634","-51.2223142","memorial","Memorial em homenagem a Fernando Chagas Riet, personalidade ligada à história do esporte ou da cultura em Porto Alegre. O memorial está localizado no bairro Cidade Baixa, em Porto Alegre.",NULL,NULL,NULL
"09f41362-5e59-497e-a394-5e7ff0c0ec5c","Marechal Mascarenhas de Moraes","-30.0381144","-51.2148254","memorial","Memorial em homenagem ao Marechal João Batista Mascarenhas de Moraes (1883–1968), comandante da Força Expedicionária Brasileira (FEB) na Segunda Guerra Mundial, na campanha da Itália (1944–1945). Natural de Passo Fundo (RS), Mascarenhas de Moraes é um dos maiores heróis militares gaúchos. O memorial está localizado no Parque Farroupilha, em Porto Alegre.",NULL,NULL,NULL
"afbafb0f-e24b-4712-ad42-16abf953d901","Dr. José Faibes Lubianca","-30.0363591","-51.2103382","memorial","Memorial em homenagem ao Dr. José Faibes Lubianca, médico e personalidade relevante para a história da saúde pública em Porto Alegre. O memorial está localizado no bairro Bom Fim, em Porto Alegre.",NULL,NULL,NULL
"9b8bfbd0-ccff-414e-8957-5c03915a0eed","Oswaldo Vergara","-30.0325184","-51.2298651","memorial","Memorial em homenagem a Oswaldo Vergara (1886–1975), advogado, político e figura proeminente da vida pública gaúcha. Vergara foi presidente do Partido Trabalhista Brasileiro (PTB) no RS e colaborador próximo de Getúlio Vargas. O memorial está localizado no Centro Histórico de Porto Alegre.",NULL,NULL,NULL
"e4829e12-0b1d-4583-bff6-0b2bce3a8522","Professor André Leão Puente","-30.0329268","-51.2298377","memorial","Memorial em homenagem ao Professor André Leão Puente, educador relevante na história da instrução pública em Porto Alegre. O memorial está localizado no Centro Histórico da cidade, reconhecendo a contribuição do homenageado para a educação gaúcha.",NULL,NULL,NULL
"5eac174b-4184-4edc-a9ca-f4a273094b3b","Desiderio Finamor","-30.0569388","-51.2224875","memorial","Memorial em homenagem a Desiderio Finamor, personalidade ligada à história política ou cultural de Porto Alegre. O memorial está localizado no bairro Cidade Baixa.",NULL,NULL,NULL
"f5db2abe-c448-4abb-89c7-275392178933","DC-3","-29.9957118","-51.1868187","memorial","Aeronave histórica Douglas DC-3, preservada como memorial no bairro Sarandi, em Porto Alegre. O DC-3 foi um dos aviões mais importantes da história da aviação civil e militar mundial, produzido entre 1936 e 1942. Muitos exemplares serviram no Brasil, inclusive no Rio Grande do Sul. A aeronave exposta é um símbolo do desenvolvimento da aviação nacional.",NULL,NULL,NULL
"bd76c777-413e-4c52-bf0c-624ef7b9f9c7","Imagem religiosa","-30.1910421","-51.0368067","monument","Imagem religiosa localizada na zona rural de Porto Alegre, próxima ao bairro Lami. Capelas e imagens de santos são comuns na paisagem rural gaúcha, marcando a devoção religiosa das comunidades de origem europeia que colonizaram a região.",NULL,NULL,NULL
"9615f141-7104-4e03-bf27-e5efa8b6c340","Monumento ao Batalhão Suez","-30.038453","-51.2300938","monument","Monumento inaugurado em 8 de janeiro de 2016 na Praça dos Açorianos, em homenagem aos soldados gaúchos que integraram o Batalhão Suez, participando das missões de paz da ONU no Oriente Médio entre 1957 e 1967. O Brasil enviou 20 contingentes do Exército ao Canal de Suez, compondo a Força de Emergência das Nações Unidas (UNEF I). A estrutura piramidal em granito, com globo e capacete azul no topo, homenageia os cerca de 700 gaúchos do 5º, 13º e 20º contingentes.","https://upload.wikimedia.org/wikipedia/commons/thumb/5/57/Monumento_ao_Batalhao_Suez_-_Porto_Alegre.jpg/480px-Monumento_ao_Batalhao_Suez_-_Porto_Alegre.jpg","pt:Monumento ao Batalhão Suez",NULL
"6b9c562f-4d72-4b5f-948c-953d7ba4bb79","Monumento aos Açorianos","-30.0390289","-51.2295676","monument","Monumento inaugurado em 26 de março de 1974, aniversário de Porto Alegre, em homenagem à chegada dos primeiros 60 casais açorianos que fundaram a cidade em 1752. A obra do escultor Carlos Tenius, com 17 m de altura e 24 m de comprimento, é feita em aço e evoca uma caravela composta de corpos humanos entrelaçados, tendo à frente uma figura alada (inspirada em Ícaro) que representa a vitória. Localizada no Largo dos Açorianos, próximo ao Centro Administrativo do Estado. Restaurada entre 2016 e 2019.","https://upload.wikimedia.org/wikipedia/commons/2/29/Largo_dos_a%C3%A7orianos_2.jpg","pt:Monumento aos Açorianos",NULL
"df74f378-0dd1-4a61-939e-462a12f92cfc","Torii","-30.03567","-51.2157882","monument","Torii é um portão tradicional japonês que marca a entrada de um santuário xintoísta. O torii presente no Parque Farroupilha, em Porto Alegre, foi doado pela comunidade japonesa e homenageia a imigração nipônica no Rio Grande do Sul. É um símbolo da diversidade cultural que caracteriza a capital gaúcha.",NULL,NULL,NULL
"bf3b928d-d9ef-4112-a3b3-f1c30aff1987","Nicolau Copérnico","-30.0438357","-51.2076519","memorial","Memorial em homenagem a Nicolau Copérnico (1473–1543), astrônomo polonês que formulou o modelo heliocêntrico do Sistema Solar, revolucionando a astronomia e o pensamento científico. O monumento está localizado no bairro Azenha, em Porto Alegre, e homenageia a herança cultural polonesa no Rio Grande do Sul.",NULL,NULL,NULL
"b00707fe-6c9e-4a6f-9a0e-a70ad771f551","Homenagem a Annes Dias","-30.0368893","-51.2193317","monument","Monumento em homenagem ao Dr. Annes Dias (1875–1941), médico sanitarista gaúcho de grande importância para a saúde pública no Rio Grande do Sul e no Brasil. Annes Dias combateu doenças como a varíola e outras endemias, contribuindo decisivamente para a melhoria das condições sanitárias da população gaúcha no início do século XX.",NULL,NULL,NULL
"a70683b6-3de2-4d88-89d0-18d15a5e17be","Homenagem a Samuel Hahnemann","-30.0378556","-51.2185464","monument","Monumento em homenagem a Samuel Hahnemann (1755–1843), médico alemão fundador da homeopatia. A homeopatia foi amplamente difundida no Rio Grande do Sul por imigrantes alemães no século XIX. O monumento está localizado no Parque Farroupilha, em Porto Alegre.",NULL,NULL,NULL
"071adc6f-f265-4339-89cb-a5dd935696ee","Homenagem a Licino Cardoso","-30.0372338","-51.2190873","monument","Monumento em homenagem a Licínio Cardoso, intelectual e filósofo brasileiro do início do século XX, expoente do positivismo no Brasil. O Positivismo de Auguste Comte foi fortemente influente no Rio Grande do Sul, moldando a política e a cultura gaúcha na Primeira República. O monumento está localizado no Parque Farroupilha, em Porto Alegre.",NULL,NULL,NULL
"6bd9869f-4540-46f0-9cab-1e0d2b223bb5","Memorial às Vítimas da COVID-19","-30.0560132","-51.2313612","memorial","Memorial em homenagem às vítimas da pandemia de COVID-19 em Porto Alegre. Inaugurado após a crise sanitária que assolou o Brasil e o mundo a partir de 2020, o memorial preserva a memória dos que perderam a vida para a doença e homenageia os profissionais de saúde que lutaram para salvar vidas. Localizado no Centro Histórico da cidade.",NULL,NULL,NULL
"0769ab23-3630-4ef2-bac3-057224eccdc2","Padre Paulo de Nadal","-30.0483596","-51.2171512","memorial","Memorial em homenagem ao Padre Paulo de Nadal, religioso que teve atuação relevante na vida comunitária e social de Porto Alegre. O memorial está localizado no bairro Cidade Baixa, reconhecendo a contribuição do sacerdote para a comunidade local.",NULL,NULL,NULL
"a89a02b8-a75b-4eca-8d32-91a9c422c363","Galeria de Arte do DMAE","-30.0271567","-51.2057402","museum","Espaço cultural do Departamento Municipal de Água e Esgotos (DMAE) de Porto Alegre, dedicado a exposições de artes visuais. A galeria promove a arte local e regional, disponibilizando seus espaços para artistas gaúchos e nacionais, integrando cultura e serviço público na capital gaúcha.",NULL,NULL,"http://dmaegaleriadearte.blogspot.com.br/"

